[
	{
		"name": " AREIKHULENG PRIMARY SCHOOL",
		"longitude": "29.7597099019961",
		"latitude": "-24.9952528860295",
		"address": "P.O. BOX 223; NEBO"
	},
	{
		"name": " BOITHUTO COMBINED",
		"longitude": "28.2084423033503",
		"latitude": "-22.8444453716845",
		"address": "P.O. BOX 36; SWARTWATER"
	},
	{
		"name": " BOXAHUKU PRIMARY ",
		"longitude": "30.9473198044898",
		"latitude": "-22.8371128907554",
		"address": "P.O. BOX 305; SASELAMANI"
	},
	{
		"name": " DAVHANA SECONDARY SCHOOL",
		"longitude": "30.4460686153863",
		"latitude": "-23.2050145221161",
		"address": "P.O. BOX 145; VUWANI"
	},
	{
		"name": " FREDDY MOKGABUDI PRIMARY SCHOOL",
		"longitude": "29.88489",
		"latitude": "-24.717227642615",
		"address": "P.O. BOX 1634; JANE  FURSE1085"
	},
	{
		"name": " GONDENI PRIMARY SCHOOL",
		"longitude": "30.4362884802647",
		"latitude": "-22.9156407625066",
		"address": "P.O. BOX 105; TSHILAPHALA"
	},
	{
		"name": " GOZA PRIMARY SCHOOL",
		"longitude": "30.33048",
		"latitude": "-23.29331",
		"address": "P.O. BOX 59; VONGANI"
	},
	{
		"name": " KGATABELA PRIMARY",
		"longitude": "28.9819398465071",
		"latitude": "-24.1303718388357",
		"address": "P.O. BOX 1264; MAHWELERENG"
	},
	{
		"name": " LACOTTE PRIMARY ",
		"longitude": "30.5870706670105",
		"latitude": "-23.712242728064",
		"address": "P/BAG X524; LETSITELE"
	},
	{
		"name": " LAERSKOOL ALMA",
		"longitude": "28.0654683266895",
		"latitude": "-24.4864460474006",
		"address": "P.O. BOX 19; ALMA"
	},
	{
		"name": " LEAGATHOKO SECONDARY SCHOOL",
		"longitude": "30.2972380928845",
		"latitude": "-24.361884492648",
		"address": "P.O. BOX 28; PENGE1160"
	},
	{
		"name": " LEHLAKONG PRIMARY SCHOOL",
		"longitude": "29.8867415899167",
		"latitude": "-24.9521213325017",
		"address": "P.O. BOX 395; NEBO"
	},
	{
		"name": " LEOKANENG PRIMARY SCHOOL",
		"longitude": "29.0221971958471",
		"latitude": "-23.5220339850242",
		"address": "BOX 962; LEOKANENG"
	},
	{
		"name": " LETOLWANE PRIMARY SCHOOL",
		"longitude": "30.135",
		"latitude": "-24.40133",
		"address": "P.O. BOX 240; DRIEKOP"
	},
	{
		"name": " MABUDUGA PRIMARY                                           ",
		"longitude": "30.37867",
		"latitude": "-22.9837",
		"address": "P.O. BOX 699;TSHISAHULU SHAYANDIM"
	},
	{
		"name": " MADABUDE  PRIMARY  SCHOOL",
		"longitude": "29.984498859187",
		"latitude": "-23.2937584967576",
		"address": "P.O. BOX 87; ELIM HOSPITAL960"
	},
	{
		"name": " MAFHUMULELE  SENIOR PRIMARY  SCHOOL",
		"longitude": "30.36736",
		"latitude": "-23.05692",
		"address": "P.O. BOX 342; LWAMONDO985"
	},
	{
		"name": " MAGOGO SECONDARY SCHOOL",
		"longitude": "29.788838",
		"latitude": "-23.692419",
		"address": "P.O. BOX 162; DIKGALE"
	},
	{
		"name": " MAGOME PRIMARY SCHOOL",
		"longitude": "30.963155",
		"latitude": "-23.3829",
		"address": "P.O. BOX 548; GIYANI"
	},
	{
		"name": " MAHLAHLE PRIMARY",
		"longitude": "30.56504",
		"latitude": "-24.64162",
		"address": "P.O. BOX 15; OHRIGSTAD1122"
	},
	{
		"name": " MAKHADO COMPREHENSIVE SECONDARY SCHOOL",
		"longitude": "29.91788",
		"latitude": "-23.06044",
		"address": "P.O.BOX 3284"
	},
	{
		"name": " MANTHLAKANE PRIMARY SCHOOL",
		"longitude": "28.7646075514407",
		"latitude": "-23.8594862114447",
		"address": "P.O. BOX 14; BAKENBERG"
	},
	{
		"name": " MAPHOKWANE HIGH SCHOOL",
		"longitude": "30.9941457297783",
		"latitude": "-23.9727328720255",
		"address": "P.O. BOX 7224; NAMAKGALE"
	},
	{
		"name": " MASEALA PROGRESSIVE SCHOOL",
		"longitude": "29.3859712051429",
		"latitude": "-23.8471246033232",
		"address": "P.O Box 211"
	},
	{
		"name": " MASHA PRIMARY SCHOOL",
		"longitude": "29.9907738331133",
		"latitude": "-24.8839818373538",
		"address": "P.O. BOX 125; NGWAABE1058"
	},
	{
		"name": " MASHUBASHUBA SECONDARY SCHOOL",
		"longitude": "28.6296871165585",
		"latitude": "-23.5303078765856",
		"address": "P.O. BOX 439; REBONE"
	},
	{
		"name": " MATANDA PRIMARY SCHOOL",
		"longitude": "30.10729",
		"latitude": "-22.88512",
		"address": "P.O. BOX 132; DZANANI955"
	},
	{
		"name": " MATHEKO PRIMARY",
		"longitude": "28.88232",
		"latitude": "-23.23015",
		"address": "P.O. BOX 44; BOCHUM"
	},
	{
		"name": " MATLHABA PRIMARY SCHOOL",
		"longitude": "28.8182233882204",
		"latitude": "-24.0518419427089",
		"address": "P.O. BOX 283; PLATINUM REEF"
	},
	{
		"name": " MATSIABABA SECONDARY",
		"longitude": "28.016867592676",
		"latitude": "-23.3216084574203",
		"address": "P.O. BOX 69; TOMBURKE"
	},
	{
		"name": " MMANTUTULE  SECONDARY",
		"longitude": "28.8437503964986",
		"latitude": "-23.9494496241325",
		"address": "P.O. BOX 108; MAPELA"
	},
	{
		"name": " MOGANETSWA  PRIMARY SCHOOL",
		"longitude": "29.56611",
		"latitude": "-25.05914",
		"address": "P.O. BOX 304; MOTETEMA"
	},
	{
		"name": " MOHLALA-MORUDI SECONDARY SCHOOL",
		"longitude": "30.0840115817797",
		"latitude": "-24.5304160826234",
		"address": "P.O. BOX 95; DRIEKOP1129"
	},
	{
		"name": " MOHLALETSE  SECONDARY",
		"longitude": "29.88512",
		"latitude": "-24.50095",
		"address": "P.O. BOX 3385; LEFALANE"
	},
	{
		"name": " MOILA SECONDARY SCHOOL",
		"longitude": "30.1129320641841",
		"latitude": "-24.4352668713599",
		"address": "P.O. BOX 1431; BURGERSFORT"
	},
	{
		"name": " MOILANONG MATSEPE PRIMARY SCHOOL",
		"longitude": "29.5314225161865",
		"latitude": "-25.038756511458",
		"address": "P.O. BOX 140; BOLEU"
	},
	{
		"name": " MOROPE MATLALA PRIMARY ",
		"longitude": "29.6083520588638",
		"latitude": "-24.9499887200878",
		"address": "P.O. BOX 481; GA-RAKGWADI"
	},
	{
		"name": " MORULANA PRIMARY SCHOOL",
		"longitude": "29.8718503593573",
		"latitude": "-24.9204",
		"address": "P.O. BOX 1017; NEBO"
	},
	{
		"name": " MOSHUPSA",
		"longitude": "28.9576838184064",
		"latitude": "-24.1460633838901",
		"address": "P.O. BOX 1055; MAHWELERENG"
	},
	{
		"name": " MOTHAPO PRIMARY",
		"longitude": "29.7027045975425",
		"latitude": "-24.0245255194603",
		"address": "P.O. BOX 2945; MPHOGODIBA"
	},
	{
		"name": " MOTHIBEDI COMBNED SCHOOL",
		"longitude": "29.2467878125636",
		"latitude": "-25.3344345907186",
		"address": "P.O BOX 1590"
	},
	{
		"name": " MOUPO PRIMARY SCHOOL",
		"longitude": "29.6454168825616",
		"latitude": "-24.2738868975585",
		"address": "P.O. BOX 6133; BOLOPA"
	},
	{
		"name": " MUKONDENI PRIMARY SCHOOL",
		"longitude": "30.6735634546484",
		"latitude": "-22.6967746274162",
		"address": "P.O. BOX 1147; MUTALE"
	},
	{
		"name": " NGWANA MOKWENA KEKANA PRIMARY SCHOOL",
		"longitude": "29.3782756200244",
		"latitude": "-24.3727546120453",
		"address": "P/BAG 499; GROOTHOEK"
	},
	{
		"name": " NKGONYELETSE SENIOR SECONDARY SCHOOL",
		"longitude": "29.73877",
		"latitude": "-24.63324",
		"address": "P.O. BOX 487; MARISHANE"
	},
	{
		"name": " NKGOSO PRIMARY ",
		"longitude": "29.41288",
		"latitude": "-24.51766",
		"address": "P/BAG X320; GOMPIES"
	},
	{
		"name": " NTHODUMELA PRIMARY ",
		"longitude": "29.2100054602209",
		"latitude": "-23.310739633828",
		"address": "BOX 876; BOCHUM"
	},
	{
		"name": " NYAANE PRIMARY SCHOOL",
		"longitude": "29.6174392770183",
		"latitude": "-24.9365032231455",
		"address": "P.O. BOX 76; GA-RAKWADI"
	},
	{
		"name": " PETANENGE HIGH SCHOOL",
		"longitude": "30.3110401489758",
		"latitude": "-23.9030209626749",
		"address": "P/BAG X1435; LETABA"
	},
	{
		"name": " PHISHEGO PRIMARY SCHOOL",
		"longitude": "29.38896",
		"latitude": "-23.86375",
		"address": "P.O. BOX 716; SESHEGO"
	},
	{
		"name": " PULEDI L/H PRIMARY SCHOOL",
		"longitude": "29.7211317755271",
		"latitude": "-23.4843857599745",
		"address": "P.O. BOX 157; DWARS RIVER"
	},
	{
		"name": " RADIRA SECONDARY SCHOOL",
		"longitude": "28.945040969532",
		"latitude": "-23.2488639716181",
		"address": "P.O. BOX 229; BOCHUM"
	},
	{
		"name": " RAKGOADI",
		"longitude": "29.56882",
		"latitude": "-24.88539",
		"address": "P.O. BOX 4; GA-RAKWADI"
	},
	{
		"name": " RALEKWALANA SECONDARY SCHOOL",
		"longitude": "29.1288965802394",
		"latitude": "-23.1669870156482",
		"address": "P.O. BOX 1500; BOCHUM"
	},
	{
		"name": " RAMOKO PRIMARY",
		"longitude": "29.97989",
		"latitude": "-24.37827",
		"address": "P.O. BOX 139; ATOK749"
	},
	{
		"name": " RATSHIKWEKWETE SECONDARY",
		"longitude": "30.443431254008",
		"latitude": "-23.0996017684757",
		"address": "P/BAG X1254; VUWANI"
	},
	{
		"name": " RAVHURA PRIMARY SCHOOL",
		"longitude": "30.56089",
		"latitude": "-22.78314",
		"address": "P.O. BOX 1623; MAKONDE"
	},
	{
		"name": " SEDIMOTHOLE SEC SCHOOL",
		"longitude": "29.6171460760534",
		"latitude": "-24.3087427737069",
		"address": "P/BAG X3020; MPHAHLELE"
	},
	{
		"name": " SEKORORO  PRIMARY  SCHOOL",
		"longitude": "30.397876418245",
		"latitude": "-24.2360485945535",
		"address": "P.O. BOX 125; TRICHARDTSDAL890"
	},
	{
		"name": " THOKGWANENG PRIMARY SCHOOL",
		"longitude": "29.4729272705526",
		"latitude": "-24.1856544087633",
		"address": "P.O. BOX 1610; CHUENESPOORT"
	},
	{
		"name": " THUTLANE LOWER PRIMARY",
		"longitude": "28.7645563434809",
		"latitude": "-23.8605824622036",
		"address": "P.O. BOX 1067; BAKENBERG"
	},
	{
		"name": " TLHAKO SECONDARY SCHOOL",
		"longitude": "29.0814472298751",
		"latitude": "-25.2268555555555",
		"address": "PO BOX 293"
	},
	{
		"name": " TODANI SECONDARY SCHOOL",
		"longitude": "30.5240166498066",
		"latitude": "-22.7387360042145",
		"address": "P.O. BOX 1235; MUTALE956"
	},
	{
		"name": " TSHIKUYU PRIMARY ",
		"longitude": "30.9507642145068",
		"latitude": "-22.4182796454588",
		"address": "P.O. BOX 208; MASISI989"
	},
	{
		"name": " TSHITAMBAMUNWE       PRIMARY         SCHOOL",
		"longitude": "30.4846929961407",
		"latitude": "-23.1650117821413",
		"address": "P.O. BOX 103; TSHIMBUPFE"
	},
	{
		"name": ".LEKGOLO-2 PRIMARY SCHOOL",
		"longitude": "30.2390739750374",
		"latitude": "-23.3612859426604",
		"address": "BOX 419; PAULUSWEG"
	},
	{
		"name": "A.M. MASHEGO SECONDARY",
		"longitude": "29.7296273236812",
		"latitude": "-25.0144038471487",
		"address": "P.O. BOX 1971; GROBLERSDAL470"
	},
	{
		"name": "ABBOTSPOORT HIGHER PRIMARY",
		"longitude": "28.08448",
		"latitude": "-23.45145",
		"address": "P.O. BOX 486; ABBOTSPOORT"
	},
	{
		"name": "ABEL SECONDARY SCHOOL",
		"longitude": "30.6088025327584",
		"latitude": "-23.4933374326702",
		"address": "P.O. BOX 4159; GA-KGAPANE"
	},
	{
		"name": "ABIOT KOLOBE PRIMARY SCHOOL",
		"longitude": "28.686286890051",
		"latitude": "-23.9236576774697",
		"address": "P/BAG X2557; POTGIETERSRUS"
	},
	{
		"name": "ABRAHAM SEROTE SECONDARY SCHOOL",
		"longitude": "29.5103090386137",
		"latitude": "-25.0444429976166",
		"address": "P.O. BOX 90; BOLEU"
	},
	{
		"name": "ABRAM SIBASA PRIMARY SCHOOL",
		"longitude": "29.1539085908691",
		"latitude": "-23.7833289278409",
		"address": "P.O. BOX 124; GA-MARABA"
	},
	{
		"name": "ADOLF MHINGA",
		"longitude": "30.9718011821008",
		"latitude": "-22.7624148701547",
		"address": "P.O. BOX 229; SASELAMANI"
	},
	{
		"name": "ADZIMMBAMBI PRIMARY SCHOOL",
		"longitude": "30.2677249290496",
		"latitude": "-22.9131677853551",
		"address": "P.O. BOX 166; FONDWE"
	},
	{
		"name": "AGISHANANG PRIMARY SCHOOL",
		"longitude": "29.1536419468986",
		"latitude": "-23.611812194986",
		"address": "P.O. BOX 132; LONSDALE"
	},
	{
		"name": "AGRICULTURAL HIGH SCHOOL KUSCHKE",
		"longitude": "29.37314",
		"latitude": "-24.01054",
		"address": "P/BAG X1; EERSTEGOUD"
	},
	{
		"name": "AKADEMIA ",
		"longitude": "28.2914826496778",
		"latitude": "-24.8826581080008",
		"address": "PO BOX 965WARMBATHS;"
	},
	{
		"name": "AKADEMIE REFORMIA",
		"longitude": "29.4603642586895",
		"latitude": "-23.8847243827748",
		"address": "POSBUS 55643; PIETERSBURG"
	},
	{
		"name": "AKANANI JUNIOR PRIMARY",
		"longitude": "30.4754601123004",
		"latitude": "-23.7264119585028",
		"address": "P.O. BOX 1361; LETSITELE"
	},
	{
		"name": "AKANI HIGH SCHOOL",
		"longitude": "30.2958981206121",
		"latitude": "-23.3084421475037",
		"address": "P/BAG 5000; VONGANI"
	},
	{
		"name": "ALAPHA SECONDARY SCHOOL",
		"longitude": "28.7919231566315",
		"latitude": "-23.4016961523662",
		"address": "P.O. BOX 286; TREVES"
	},
	{
		"name": "ALBERT LUTHULI PRIMARY SCHOOL",
		"longitude": "28.3238231913167",
		"latitude": "-24.8828944444444",
		"address": "P.O. BOX 510; WARMBATHS"
	},
	{
		"name": "ALBERT MABE PRIMARY SCHOOL",
		"longitude": "30.9853994422388",
		"latitude": "-23.5857713673275",
		"address": "P.O. BOX 40; PHANGWENI"
	},
	{
		"name": "ALF MAKALENG",
		"longitude": "29.3528204797889",
		"latitude": "-23.8477716821981",
		"address": "P.O. BOX 63079; SESHEGO"
	},
	{
		"name": "ALFRED B MAKAPAN",
		"longitude": "28.930389426606",
		"latitude": "-24.0864743126047",
		"address": "P/BAG X606; MAHWELERENG"
	},
	{
		"name": "ALFRED_MASIBE PRIMARY",
		"longitude": "28.9489475521383",
		"latitude": "-23.9395590586832",
		"address": "P.O. BOX 216; MAHWELERENG"
	},
	{
		"name": "ALLDAYS COMBINED SCHOOL",
		"longitude": "29.1061381756128",
		"latitude": "-22.6848639172199",
		"address": "P.O. BOX 194; ALLDAYS"
	},
	{
		"name": "ALLEGRAINE PRIMARY SCHOOL",
		"longitude": "30.3889228812682",
		"latitude": "-24.0858499401307",
		"address": "P.O. BOX 14; OFCOLACO"
	},
	{
		"name": "AMARIA COMBINED SCHOOL",
		"longitude": "30.1473193653386",
		"latitude": "-22.8768857042072",
		"address": "P.O Box 873"
	},
	{
		"name": "AMBADZIFHELE PRIMARY SCHOOL",
		"longitude": "30.5211135658204",
		"latitude": "-22.9111141715355",
		"address": "P.O. BOX 2227; SIBASA"
	},
	{
		"name": "AMBERGATE PRIMARY SCHOOL",
		"longitude": "28.9301",
		"latitude": "-23.533317",
		"address": "P.O. BOX 65; JUNO"
	},
	{
		"name": "ANDERSON PRIMARY",
		"longitude": "30.4040080745135",
		"latitude": "-23.313468535529",
		"address": "P/BAG BAG X 591; NWAMANUNGU"
	},
	{
		"name": "ANDRIES MUGAGULI SECONDARY SCHOOL",
		"longitude": "30.3989643904718",
		"latitude": "-23.0455006576482",
		"address": "P/BAG X1408; LWAMONDO985"
	},
	{
		"name": "APPEL COMBINED SCHOOL",
		"longitude": "29.9926769329264",
		"latitude": "-23.9027823549317",
		"address": "P.O.; MAGOEBASKLOOF"
	},
	{
		"name": "APRIL MAKGAKGA",
		"longitude": "29.3617361112817",
		"latitude": "-23.8011851508379",
		"address": "P.O. BOX 701; SESHEGO"
	},
	{
		"name": "AQUAVILLE COMBINED SCHOOL",
		"longitude": "29.3502524374439",
		"latitude": "-25.17626148123",
		"address": "BOX 754"
	},
	{
		"name": "ARETHABENG PRIMARY SCHOOL",
		"longitude": "29.8625768491857",
		"latitude": "-24.7560039140657",
		"address": "P.O. BOX 315; JANE FURSE1085"
	},
	{
		"name": "ARKONA PRIMARY",
		"longitude": "29.64326",
		"latitude": "-24.56519",
		"address": "P.O. BOX 43; MASEMOLA1060"
	},
	{
		"name": "AURORA PRIMARY SCHOOL",
		"longitude": "28.87621",
		"latitude": "-23.45801",
		"address": "P.O. BOX 3646; AMBERGATE"
	},
	{
		"name": "AVHATONDWI PRIMARY SCHOOL",
		"longitude": "30.3962441025209",
		"latitude": "-23.1408961873174",
		"address": "P.O. BOX 767; VUWANI"
	},
	{
		"name": "AWELANI CHRISTIAN SCHOOL",
		"longitude": "30.425807254479",
		"latitude": "-23.0003801759346",
		"address": "P.O. BOX 2917; SHAYANDIMA945"
	},
	{
		"name": "AZWIFARWI SECONDARY SCHOOL",
		"longitude": "30.523754641759",
		"latitude": "-22.9624946623407",
		"address": "P.O. BOX 2512; THOHOYANDOU950"
	},
	{
		"name": "B. MKHABELE JUNIOR SECONDARY SCHOOL",
		"longitude": "30.3250873419548",
		"latitude": "-23.9750960121869",
		"address": "P.O. BOX 7134; TZANEEN"
	},
	{
		"name": "B.R. NEMULODI COMBINED PRIMARY SCHOOL",
		"longitude": "30.5539347182011",
		"latitude": "-22.7435961872677",
		"address": "P.O. BOX 1037; MUTALE"
	},
	{
		"name": "BABABA SECONDARY SCHOOL",
		"longitude": "30.6118611080619",
		"latitude": "-22.8151758642629",
		"address": "P.O. BOX 1601; MAKONDE THOHOYANDOU984"
	},
	{
		"name": "BABANGU PRIMARY SCHOOL",
		"longitude": "30.4394039052055",
		"latitude": "-23.2825138452306",
		"address": "P.O. BOX 1213; GIYANI"
	},
	{
		"name": "BACHABANG PRIMARY SCHOOL",
		"longitude": "30.1603661776738",
		"latitude": "-24.5863530672316",
		"address": "P.O. BOX 19; DRIEKOP1129"
	},
	{
		"name": "BADIMONG PRIMARY SCHOOL",
		"longitude": "29.7749730055975",
		"latitude": "-23.9019494469198",
		"address": "P.O. BOX 397; BOYNE"
	},
	{
		"name": "BAFALADI PRIMARY",
		"longitude": "29.5699187810769",
		"latitude": "-25.0239161059824",
		"address": "P.O. BOX 839; GROBLERSDAL"
	},
	{
		"name": "BAFEDI PRIMARY",
		"longitude": "29.8762059454673",
		"latitude": "-24.7568775726826",
		"address": "P.O. BOX 684; JANE FURSE1085"
	},
	{
		"name": "BAHLALOGA SECONDARY SCHOOL",
		"longitude": "29.16519",
		"latitude": "-23.61896",
		"address": "P.O. BOX 303; LONSDALE"
	},
	{
		"name": "BAILAFURI PRIMARY SCHOOL",
		"longitude": "29.3088276478094",
		"latitude": "-23.6948590277355",
		"address": "P.O. BOX 1874; KOLOTI"
	},
	{
		"name": "BAITHUDI MOHLAHLEDI PRIMARY SCHOOL",
		"longitude": "29.5292476377546",
		"latitude": "-24.7371024622015",
		"address": "P.O. BOX 210; GA - MAPANE467"
	},
	{
		"name": "BAITSWE SEC SCHOOL",
		"longitude": "27.88096",
		"latitude": "-23.22185",
		"address": "P.O. BOX 2; SELEKA"
	},
	{
		"name": "BAKENBERG HIGH",
		"longitude": "28.7645392455003",
		"latitude": "-23.8647059253888",
		"address": "P/BAG X2303; BAKENBERG"
	},
	{
		"name": "BAKGALAKA LOWER PRIMARY",
		"longitude": "28.1029483952369",
		"latitude": "-23.5673985624342",
		"address": "P.O. BOX 546; ELLISRAS"
	},
	{
		"name": "BAKONE LOWER PRIMARY SCHOOL",
		"longitude": "29.0477843876292",
		"latitude": "-23.7401231647058",
		"address": "P.O. BOX 823; BAKONE"
	},
	{
		"name": "BAKONE NKWE",
		"longitude": "29.175746163062",
		"latitude": "-23.3858868975367",
		"address": "P.O. BOX 110; BOCHUM"
	},
	{
		"name": "BAKOPA PRIMARY SCHOOL",
		"longitude": "29.5011055041639",
		"latitude": "-25.0513109610942",
		"address": "P.O. BOX 49; BOLEU"
	},
	{
		"name": "BAKWENA 11 SEC ",
		"longitude": "29.103498640169",
		"latitude": "-23.6022870949415",
		"address": "P.O. BOX 304; LONSDALE"
	},
	{
		"name": "BALALILA  PRIMARY",
		"longitude": "30.0325472741779",
		"latitude": "-22.8992853719102",
		"address": "P.O. BOX 817; DZANANI955"
	},
	{
		"name": "BALE PRIMARY SCHOOL",
		"longitude": "30.6662951740678",
		"latitude": "-22.4341646622976",
		"address": "P.O. BOX 221; MANENZHE967"
	},
	{
		"name": "BALENI PRIMARY SCHOOL",
		"longitude": "30.8602517234727",
		"latitude": "-23.485460248578",
		"address": "P.O. BOX 96; GIYANI"
	},
	{
		"name": "BALLOON MANTJANA PRIMARY SCHOOL",
		"longitude": "30.381636960996",
		"latitude": "-24.1843486127506",
		"address": "P.O. BOX 73; TRICHARDTSDAL890"
	},
	{
		"name": "BALTIMORE PRIMARY",
		"longitude": "28.4397110334766",
		"latitude": "-23.270159272279",
		"address": "P.O. BOX 57; BALTIMORE"
	},
	{
		"name": "BAMBENI SECONDARY SCHOOL",
		"longitude": "30.7003582381218",
		"latitude": "-23.4874961168409",
		"address": "P.O. BOX 4205; GIYANI"
	},
	{
		"name": "BANARENG PRIMARY SCHOOL",
		"longitude": "30.6306293514369",
		"latitude": "-24.4850795763538",
		"address": "P.O. BOX 362; OHRIGSTAD1122"
	},
	{
		"name": "BANGALONG PRIMARY",
		"longitude": "28.1799316097698",
		"latitude": "-23.4916531024662",
		"address": "P.O. BOX 420; ELLISRAS"
	},
	{
		"name": "BANKUNA HIGH SCHOOL",
		"longitude": "30.2954523828311",
		"latitude": "-23.8889087368284",
		"address": "P/BAG X1428; LETABA"
	},
	{
		"name": "BANTABETHU PRIMARY",
		"longitude": "29.7201512942772",
		"latitude": "-25.0612407621482",
		"address": "P.O. BOX 510; GROBLERSDAL470"
	},
	{
		"name": "BANTWANE PRIMARY SCHOOL",
		"longitude": "29.263602718176",
		"latitude": "-25.3202740220805",
		"address": "P.O BOX 406"
	},
	{
		"name": "BAPHADIMA SECONDARY SCHOOL",
		"longitude": "29.9452516886522",
		"latitude": "-24.3605467031381",
		"address": "P.O. BOX 994; SEKHUKHUNE1124"
	},
	{
		"name": "BAPHOTING LOWER PRIMARY",
		"longitude": "27.9105655522322",
		"latitude": "-23.2182377122806",
		"address": "P.O. BOX 794; ELLISRAS"
	},
	{
		"name": "BAPHUTHENG SECONDARY SCHOOL",
		"longitude": "29.6897311783995",
		"latitude": "-23.7700977118685",
		"address": "P/BAG X1109; SOVENGA"
	},
	{
		"name": "BARANUKA SECONDARY SCHOOL",
		"longitude": "31.0485803477026",
		"latitude": "-23.8571089575054",
		"address": "P.O. BOX 1436; LULEKANI"
	},
	{
		"name": "BAROKA",
		"longitude": "30.6436163706476",
		"latitude": "-24.4688126818401",
		"address": "P.O. BOX 176; MABOLOKE1126"
	},
	{
		"name": "BAROPODI PRIMARY SCHOOL",
		"longitude": "29.8753737449363",
		"latitude": "-24.7642294347612",
		"address": "P.O. BOX 221; JANE FURSE1085"
	},
	{
		"name": "BASELOANE PRIMARY SCHOOL",
		"longitude": "29.506083010022",
		"latitude": "-24.5494586318966",
		"address": "P/BAG X38; CHUNIESPOORT"
	},
	{
		"name": "BASHASHA",
		"longitude": "30.5360635412185",
		"latitude": "-22.727408387564",
		"address": "P.O. BOX 1057; MUTALE956"
	},
	{
		"name": "BASOPA SECONDARY SCHOOL",
		"longitude": "30.9010394675868",
		"latitude": "-22.8147368623493",
		"address": "P.O. BOX 658; SASELAMANI"
	},
	{
		"name": "BATAU HIGH SCHOOL",
		"longitude": "30.2697201881158",
		"latitude": "-24.6475584920723",
		"address": "P.O. BOX 1603; BURGERSFORT"
	},
	{
		"name": "BATAU PRIMARY SCHOOL",
		"longitude": "28.726992124774",
		"latitude": "-25.676888010466",
		"address": "PO BOX 502"
	},
	{
		"name": "BATAUNG SECONDARY SCHOOL",
		"longitude": "29.2107172706351",
		"latitude": "-23.3086898418976",
		"address": "P.O. BOX 183; BOCHUM"
	},
	{
		"name": "BATHLALERWA SCHOOL",
		"longitude": "28.1352114222971",
		"latitude": "-23.5260176774057",
		"address": "BOX 61; ELLISRAS"
	},
	{
		"name": "BATHOKWA SECONDARY ",
		"longitude": "28.58588",
		"latitude": "-23.6875",
		"address": "BOX 6142; SKRIKFONTEIN"
	},
	{
		"name": "BATHOPELE SECONDARY SCHOOL",
		"longitude": "28.2970986116159",
		"latitude": "-25.2133676075878",
		"address": "POBOX72 PIENAARSRIVIER"
	},
	{
		"name": "BB MATLAILA",
		"longitude": "28.7296906445241",
		"latitude": "-24.5176504044335",
		"address": "P.O. BOX 1120; NABOOMSPRUIT"
	},
	{
		"name": "BEGWA TSHITUMBE JUNIOR PRIMARY SCHOOL",
		"longitude": "30.80247",
		"latitude": "-22.78193",
		"address": "P.O. BOX 205; TSHAULU"
	},
	{
		"name": "BEITBRIDGE PRIMARY SCHOOL",
		"longitude": "30.036099",
		"latitude": "-22.351614",
		"address": "PHASE 3,MATSWALE VILLAGE, MUSINA"
	},
	{
		"name": "BELA -BELA SECONDARY SCHOOL",
		"longitude": "28.3180772429051",
		"latitude": "-24.8892620777401",
		"address": "P/BAG X1627; WARMBATHS"
	},
	{
		"name": "BELE PRIMARY SCHOOL",
		"longitude": "30.2007583851115",
		"latitude": "-22.9914328427372",
		"address": "P.O. BOX 3993; LOUIS TRICHARDT920"
	},
	{
		"name": "BELEMU PRIMARY SCHOOL",
		"longitude": "30.3413228234654",
		"latitude": "-22.988495407394",
		"address": "P.O. BOX 55; LWAMONDO985"
	},
	{
		"name": "BEN    EVELYN   COMMBINED  SCHOOL",
		"longitude": "29.3731430180094",
		"latitude": "-23.8496050074093",
		"address": "PO BOX 7772"
	},
	{
		"name": "BEN VORSTER",
		"longitude": "30.152",
		"latitude": "-23.83582",
		"address": "P.O. BOX 412; TZANEEN"
	},
	{
		"name": "BEN-HLONGWANE-HIGH",
		"longitude": "28.9871918107099",
		"latitude": "-24.0802165039989",
		"address": "P.O. BOX 2381; MAHWELERENG"
	},
	{
		"name": "BENNY'S SPORTS DEVELOPMENT & ACADEMY COMBINED SCHOOL",
		"longitude": "29.8857680917922",
		"latitude": "-22.8637106848329",
		"address": "PO BOX 3293 MAKHADO"
	},
	{
		"name": "BENSON SHIVITI",
		"longitude": "30.797553196028",
		"latitude": "-23.2575865787885",
		"address": "P.O. BOX 3608; GIYANI"
	},
	{
		"name": "BEREA HIGHER PRIMARY SCHOOL",
		"longitude": "30.2772946262627",
		"latitude": "-23.402107352006",
		"address": "P/BAG 1590; VUYANI"
	},
	{
		"name": "BERGVLAM PRIMARY",
		"longitude": "30.47903",
		"latitude": "-22.95513",
		"address": "P.O. BOX 142; SIBASA"
	},
	{
		"name": "BESSIE MAAKE HIGH SCHOOL",
		"longitude": "30.2545190224078",
		"latitude": "-24.0109405526499",
		"address": "P.O. BOX 444; SHILUVANE873"
	},
	{
		"name": "BEUSTER PRIMARY SCHOOL",
		"longitude": "30.4304894105052",
		"latitude": "-22.9734838473705",
		"address": "P.O. BOX 1853; THOHOYANDOU"
	},
	{
		"name": "BIKO PARK PRIMARY",
		"longitude": "29.3796",
		"latitude": "-23.83887",
		"address": "P.O. BOX 1057; SESHEGO"
	},
	{
		"name": "BJATLADI SECONDARY SCHOOL",
		"longitude": "29.8015707542235",
		"latitude": "-23.8114540214919",
		"address": "P/BAG 1115; SOVENGA"
	},
	{
		"name": "BK MATLALA COMMERCIAL HIGH SCHOOL",
		"longitude": "29.0419675203466",
		"latitude": "-23.7347257919936",
		"address": "P.O. BOX 868; BAKONE"
	},
	{
		"name": "BLAAUWBOSCHKUIL PRIMARY",
		"longitude": "28.2781306721772",
		"latitude": "-25.0770341441403",
		"address": "P.O. BOX 77; RADIUM"
	},
	{
		"name": "BLINKWATER",
		"longitude": "29.0267745161941",
		"latitude": "-24.4288345925311",
		"address": "P.O. BOX 855; POTGIETERSRUS"
	},
	{
		"name": "BLOMPOORT COMBINED SCHOOL",
		"longitude": "29.205033760397",
		"latitude": "-25.2386345030031",
		"address": ""
	},
	{
		"name": "BODIELA SECONDARY",
		"longitude": "28.9404853637235",
		"latitude": "-23.3251002620988",
		"address": "P.O. BOX 200; BOCHUM"
	},
	{
		"name": "BODIROA",
		"longitude": "28.9756842138052",
		"latitude": "-23.1309823778739",
		"address": "P.O. BOX 1614; BOCHUM"
	},
	{
		"name": "BODUMA PRIMARY SCHOOL ",
		"longitude": "29.8271586114863",
		"latitude": "-23.461901662388",
		"address": "P.O. BOX 56; RAMOKGOPHA"
	},
	{
		"name": "BODUTLULO PRIMARY SCHOOL",
		"longitude": "29.7701952162289",
		"latitude": "-24.266927002135",
		"address": "PO BOX 646"
	},
	{
		"name": "BOERBOOMKRAAL",
		"longitude": "30.349298478199",
		"latitude": "-24.8213331373557",
		"address": "PO BOX 2814"
	},
	{
		"name": "BOETSE  SECONDARY  SCHOOL",
		"longitude": "29.2975130746247",
		"latitude": "-23.7432218923272",
		"address": "P.O. BOX 1866; KOLOTI"
	},
	{
		"name": "BOGALATLADI PRIMARY SCHOOL",
		"longitude": "29.8714562381099",
		"latitude": "-24.2617153376079",
		"address": "P.O. BOX 19; ATOK"
	},
	{
		"name": "BOGALENG PRIMARY",
		"longitude": "29.6217651277632",
		"latitude": "-24.3636184306536",
		"address": "P.O. BOX 220; MPHAHLELE"
	},
	{
		"name": "BOGWASHA PRIMARY",
		"longitude": "30.3162989535042",
		"latitude": "-24.5807665400844",
		"address": "P.O. BOX 2015; BURGERSFORT"
	},
	{
		"name": "BOHLAPA KOLOBE",
		"longitude": "28.6255639103238",
		"latitude": "-23.9369650133111",
		"address": "BOX 1078; MOKAMOLE"
	},
	{
		"name": "BOHWELABATHO  PRIMARY",
		"longitude": "29.7445803980892",
		"latitude": "-24.7005921566607",
		"address": "P.O. BOX 90; MAKADIKWE1062"
	},
	{
		"name": "BOIKETLO PRIMARY SCHOOL",
		"longitude": "29.3837793572325",
		"latitude": "-23.8368917160382",
		"address": "P.O. BOX 65; SESHEGO"
	},
	{
		"name": "BOIKHUTJONG SECONDARY SCHOOL",
		"longitude": "29.5310116091262",
		"latitude": "-24.239576967175",
		"address": "P O BOX 1129; LEBOWAKGOMO"
	},
	{
		"name": "BOIKHUTSO PRIMARY",
		"longitude": "29.0970432846064",
		"latitude": "-23.0627138467825",
		"address": "P.O. BOX 268; INDERMARK"
	},
	{
		"name": "BOKAMOSO SENIOR SECONDARY SCHOOL",
		"longitude": "29.3902842793184",
		"latitude": "-23.8494801571912",
		"address": "P.O. BOX 5494; PIETERSBURG NORTH"
	},
	{
		"name": "BOKE SECONDARY SCHOOL",
		"longitude": "30.3327384727944",
		"latitude": "-23.6899294671453",
		"address": "P/BAG X4050; TZANEEN"
	},
	{
		"name": "BOKGAGA HIGH SCHOOL",
		"longitude": "30.2743658035248",
		"latitude": "-24.0350362528741",
		"address": "P/BAG X403; SHILUBANE873"
	},
	{
		"name": "BOKGOBELO PRIMARY SCHOOL",
		"longitude": "29.538062860876",
		"latitude": "-24.1820706925695",
		"address": "P.O. BOX 2000; MAJA"
	},
	{
		"name": "BOKONI PRIMARY SCHOOL",
		"longitude": "30.0516029622166",
		"latitude": "-24.946480727294",
		"address": "PO BOX 1"
	},
	{
		"name": "BOKWIDI PRIMARY SCHOOL",
		"longitude": "28.65338",
		"latitude": "-23.82414",
		"address": "P.O. SUSWE; SUSWE"
	},
	{
		"name": "BOLAHLAKGOMO PRIMARY SCHOOL",
		"longitude": "29.3238627113916",
		"latitude": "-24.4412602824368",
		"address": "P/BAG X538; KORINGPUNT"
	},
	{
		"name": "BOLEU SENIOR SECONDARY SCHOOL",
		"longitude": "29.5120855963729",
		"latitude": "-25.0599475096644",
		"address": "P/BAG X639; GROBLERSDAL"
	},
	{
		"name": "BOLLANOTO PRIMARY",
		"longitude": "31.0406777472953",
		"latitude": "-23.9777686881922",
		"address": "P/BAG X 11034 ;NAMAKGALE"
	},
	{
		"name": "BOLOBEDU PRIMARY SCHOOL",
		"longitude": "30.3458666072401",
		"latitude": "-23.6224848771379",
		"address": "P.O. BOX 6004; MODJADJI"
	},
	{
		"name": "BOLOPA PRIMARY SCHOOL",
		"longitude": "29.6262335566925",
		"latitude": "-24.2652254770298",
		"address": "P.O. BOX 6100; MPHAHLELE"
	},
	{
		"name": "BOLOTSWI SECONDARY SCHOOL",
		"longitude": "30.4719",
		"latitude": "-23.49279",
		"address": "P.O. BOX 4309; GA-KGAPANE"
	},
	{
		"name": "BOMBELENI PRIMARY",
		"longitude": "30.3087879073332",
		"latitude": "-23.8888029949618",
		"address": "P.O. BOX 1096; LETABA"
	},
	{
		"name": "BONANG-BONANI PRIMARY SCHOOL",
		"longitude": "29.6175161563467",
		"latitude": "-24.9661483874621",
		"address": "P.O. BOX 4133; MPUDULLE"
	},
	{
		"name": "BONEGA MADIKUBUNG",
		"longitude": "29.9069969497428",
		"latitude": "-24.7726468626429",
		"address": "P.O. BOX 876; JANE FURSE1085"
	},
	{
		"name": "BONWANKWE PRIMARY SCHOOL",
		"longitude": "30.1477162058847",
		"latitude": "-24.5982746621079",
		"address": "P.O. BOX 332; DRIEKOP1129"
	},
	{
		"name": "BONWA-UDI PRIMARY",
		"longitude": "30.0327779502978",
		"latitude": "-22.330520965128",
		"address": "P.O. BOX 330; MESSINA"
	},
	{
		"name": "BOPEDI  BAPEDI  HIGH  ",
		"longitude": "29.7539172087838",
		"latitude": "-24.7267416666666",
		"address": "P.O. BOX 61; MARISHANE1064"
	},
	{
		"name": "BORDEAUX COMBINED PRIMARY",
		"longitude": "30.3287997442211",
		"latitude": "-24.051981023805",
		"address": "BOX 543JULESBURG;"
	},
	{
		"name": "BOREDI PRIMARY SCHOOL",
		"longitude": "29.8864667856014",
		"latitude": "-24.2030392002959",
		"address": "BOX 340; MATHABATHA"
	},
	{
		"name": "BORELETSANE",
		"longitude": "30.6176847689302",
		"latitude": "-23.4868945909449",
		"address": "P.O. BOX 4159; GA-KGAPANE"
	},
	{
		"name": "BORULA MOSIMA",
		"longitude": "28.12547446686",
		"latitude": "-23.4042694444444",
		"address": "P.O. BOX 90; ABBOTSPOORT"
	},
	{
		"name": "BORUME PRIMARY SCHOOL",
		"longitude": "29.0411698006914",
		"latitude": "-23.4741656166198",
		"address": "BOX 318; COOPERSPARK"
	},
	{
		"name": "BORWALATHOTO HIGHER & LOWER PRIMARY  ",
		"longitude": "28.7090632543858",
		"latitude": "-23.0749706691938",
		"address": "P.O. BOX 686; BOCHUM"
	},
	{
		"name": "BOSAKGO SECONDARY SCHOOL",
		"longitude": "29.2975734493335",
		"latitude": "-23.5947301352961",
		"address": "P.O. BOX 9; LONSDALE"
	},
	{
		"name": "BOSCHDRAAI PRIMARY SCHOOL",
		"longitude": "28.2762157333204",
		"latitude": "-24.2675252118762",
		"address": "P.O. BOX 301; VAALWATER"
	},
	{
		"name": "BOSCHPLAATS PRIMARY SHCOOL",
		"longitude": "29.5628461726932",
		"latitude": "-24.451370064902",
		"address": "P/BAG X66; LEBOWAKGOMO"
	},
	{
		"name": "BOSELAKGAKA PRIMARY SCHOOL",
		"longitude": "29.1002913022796",
		"latitude": "-23.4462562606095",
		"address": "P/BAG X7888; PIETERSBURG"
	},
	{
		"name": "BOSEMAHLA",
		"longitude": "29.4093886479867",
		"latitude": "-23.6966986168549",
		"address": "P.O. BOX 133; MANYAMA"
	},
	{
		"name": "BOSHATOLO FARM",
		"longitude": "29.935614919823",
		"latitude": "-23.4954184419503",
		"address": "P.O. BOX 1054; SOEKMEKAAR"
	},
	{
		"name": "BOSHEGA PRIMARY SCHOOL",
		"longitude": "29.7489566075604",
		"latitude": "-23.7762615000309",
		"address": "P.O Box 2973"
	},
	{
		"name": "BOSHEGO HIGH SCHOOL",
		"longitude": "29.8013656023017",
		"latitude": "-24.0339577968184",
		"address": "P/BAG 1125; SOVENGA"
	},
	{
		"name": "BOTHANANG PRIMARY",
		"longitude": "29.131152549011",
		"latitude": "-23.2890365670422",
		"address": "BOX 763"
	},
	{
		"name": "BOTLOKWA PRIMARY",
		"longitude": "29.7076828785464",
		"latitude": "-23.4881331024264",
		"address": "P/BAG X501; DWARS RIVER"
	},
	{
		"name": "BOTLUDI PRIMARY SCHOOL",
		"longitude": "30.3819628101367",
		"latitude": "-23.6510500872351",
		"address": "P.O. BOX 7447; TZANANG MALL"
	},
	{
		"name": "BOTSHOLLA SECONDARY SCHOOL",
		"longitude": "29.1472669325125",
		"latitude": "-23.5517738473775",
		"address": "P.O. BOX 6052; LONSDALE"
	},
	{
		"name": "BOTSHWA",
		"longitude": "28.873167",
		"latitude": "-23.169833",
		"address": "P.O. BOX 654; BOCHUM"
	},
	{
		"name": "BOTSIKANA",
		"longitude": "29.1138320945497",
		"latitude": "-23.9647977109666",
		"address": "P.O. BOX 80; MASHASHANE"
	},
	{
		"name": "BOTSOLENI PRIMARY",
		"longitude": "30.8647173905287",
		"latitude": "-22.7842582470433",
		"address": "P.O. BOX 252; SASELAMANI"
	},
	{
		"name": "BRUSSELS NGOAKO PRIMARY SCHOOL",
		"longitude": "29.14890382894",
		"latitude": "-23.3732370022989",
		"address": "P.O. BOX 120; BOCHUM"
	},
	{
		"name": "BUFFELSVALLEI COMBINED SCHOOL",
		"longitude": "29.5679603327294",
		"latitude": "-25.1886811283476",
		"address": "P.O.BOX 1368"
	},
	{
		"name": "BUNGENI PRIMARY SCHOOL",
		"longitude": "30.2082562744755",
		"latitude": "-23.2089400872756",
		"address": "P.O. BOX 45; ELIM HOSPITAL"
	},
	{
		"name": "BURGERSDORP JUNIOR SECONDARY",
		"longitude": "30.306592116041",
		"latitude": "-24.0140989880001",
		"address": "BOX 1089 ; SHILUVANE"
	},
	{
		"name": "BURGWAL PRIMARY SCHOOL",
		"longitude": "29.0322345252675",
		"latitude": "-23.446133102334",
		"address": "P.O. BOX 120; NTSIMA"
	},
	{
		"name": "BUTSHWANA",
		"longitude": "30.5451895917202",
		"latitude": "-24.3290098064629",
		"address": "P/BAG X417; MOETLADIMO891"
	},
	{
		"name": "BVUMA PRIMARY SCHOOL",
		"longitude": "30.8092120625121",
		"latitude": "-23.5553230317429",
		"address": "P.O. BOX 1005; GIYANI"
	},
	{
		"name": "BYLDRIFT PRIMARY",
		"longitude": "29.4955856631568",
		"latitude": "-24.5216334195726",
		"address": "P.O. BOX 162; MALATANE"
	},
	{
		"name": "C.M. SEHLAPELO",
		"longitude": "29.3848311487124",
		"latitude": "-23.8414808954006",
		"address": "P.O. BOX 146; SESHEGO"
	},
	{
		"name": "CALAIS SECONDARY SCHOOL",
		"longitude": "30.3397744663442",
		"latitude": "-24.1331024961294",
		"address": "P.O. BOX 1998; TRICHARDSDAL890"
	},
	{
		"name": "CALEDON  PRIMARY",
		"longitude": "30.3667986248984",
		"latitude": "-23.2477354772817",
		"address": "P.O. BOX 462; VONGANI"
	},
	{
		"name": "CALVIN COLLEGE",
		"longitude": "30.3098213865591",
		"latitude": "-24.6661794425722",
		"address": "P.O.Box 3192"
	},
	{
		"name": "CAPRICORN HIGH",
		"longitude": "29.4718964029868",
		"latitude": "-23.9086527777777",
		"address": "VORSTER STREET; PIETERSBURG"
	},
	{
		"name": "CATA SENIOR SECONDARY",
		"longitude": "30.3504210761847",
		"latitude": "-23.9588270717907",
		"address": "P.O. BOX 1315; LETSITELE"
	},
	{
		"name": "CENTAURI COMBINED SCHOOL",
		"longitude": "30.408352593235",
		"latitude": "-23.0744889958983",
		"address": "P O BOX 2802"
	},
	{
		"name": "CERES PRIMARY SCHOOL",
		"longitude": "29.1310145883427",
		"latitude": "-23.6811899667183",
		"address": "P.O. BOX 180; JUNO"
	},
	{
		"name": "CHAKGA SEN SEC SCHOOL",
		"longitude": "29.6274817186256",
		"latitude": "-24.0846293121668",
		"address": "P.O. BOX 1804; PIETERSBURG"
	},
	{
		"name": "CHAMANDU HIGH",
		"longitude": "30.5820083771365",
		"latitude": "-23.2818388888888",
		"address": "P.O. BOX 3139; GIYANI"
	},
	{
		"name": "CHAMETI HIGH SCHOOL",
		"longitude": "30.9001893067293",
		"latitude": "-23.5967267574429",
		"address": "P.O. BOX 2591; GIYANI"
	},
	{
		"name": "CHANYELA PRIMARY SCHOOL",
		"longitude": "30.5519",
		"latitude": "-23.10895",
		"address": "CHANYELA SCHOOL"
	},
	{
		"name": "CHARLES MARAKALALA SECONDARY SCHOOL",
		"longitude": "28.6537638508345",
		"latitude": "-23.7959000525774",
		"address": "P.O. BOX 1380; BAKENBERG"
	},
	{
		"name": "CHARLES MATHONSI SEN. SECONDARY SCHOOL",
		"longitude": "30.2567987550211",
		"latitude": "-23.9010182395523",
		"address": "P/BAG X1446; LETABA"
	},
	{
		"name": "CHARLIE RHANGANI PRIMARY",
		"longitude": "30.7116982857822",
		"latitude": "-23.5597443776741",
		"address": "P.O. BOX 3703; GIYANI"
	},
	{
		"name": "CHAVANI  PRIMARY ",
		"longitude": "30.1381",
		"latitude": "-23.19839",
		"address": "P.O. BOX 304; ELIM HOSPITAL"
	},
	{
		"name": "CHECHEMA SECONDARY SCHOOL",
		"longitude": "29.2540493721754",
		"latitude": "-23.5079055091831",
		"address": "P O BOX 55625; PIETERSBURG"
	},
	{
		"name": "CHIDI COMBINED SCHOOL",
		"longitude": "29.5592471729517",
		"latitude": "-24.4391177163929",
		"address": "P.O. BOX 71; LEBOWAKGOMO"
	},
	{
		"name": "CHIKA SECONDARY SCHOOL",
		"longitude": "29.0732401896718",
		"latitude": "-23.5231506925289",
		"address": "P.O. BOX 430; LONSDALE"
	},
	{
		"name": "CHITA KEKANA SECONDARY",
		"longitude": "29.3235309262117",
		"latitude": "-24.3637600519326",
		"address": "P/BAG X497; GROOTHOEK"
	},
	{
		"name": "CHLOE PRIMARY SCHOOL",
		"longitude": "29.0807851677581",
		"latitude": "-23.6773518058829",
		"address": "P.O. BOX 03; JUNO"
	},
	{
		"name": "CHOKWE",
		"longitude": "29.3183215806064",
		"latitude": "-23.629116362111",
		"address": "BOX 2701; KOLOTI709"
	},
	{
		"name": "CHRIS HOFMEYR PRIMARY SCHOOL",
		"longitude": "29.3580386659746",
		"latitude": "-23.9898478564438",
		"address": "PK; EERSTEGOUD"
	},
	{
		"name": "CHRIST THE KING ACADEMY",
		"longitude": "29.3891873900075",
		"latitude": "-23.843199237278",
		"address": "BOX 486;SOVENGA0727"
	},
	{
		"name": "CHRIST THE KING PRIMARY SCHOOL",
		"longitude": "30.4972485567491",
		"latitude": "-22.9447754547557",
		"address": "P/BAG 2590; SIBASA"
	},
	{
		"name": "CHRISTIAN ACHIEVERS ACADEMY",
		"longitude": "29.449172191357",
		"latitude": "-23.9279039849501",
		"address": "PO BOX 1735POLOKWANE;"
	},
	{
		"name": "CHROME MINE PRIMARY",
		"longitude": "27.2891408544877",
		"latitude": "-24.7854762223227",
		"address": "P.O. BOX 102; CHROMITE"
	},
	{
		"name": "CHUCHEKANI PRIMARY SCHOOL",
		"longitude": "31.0615309835898",
		"latitude": "-23.8784796674117",
		"address": "P.O. BOX 798; LULEKANI"
	},
	{
		"name": "CHUEUEKGOLO SECONDARY SCHOOL",
		"longitude": "29.5218718049939",
		"latitude": "-24.4295013325868",
		"address": "P.O. BOX 395; LEBOWAKGOMO"
	},
	{
		"name": "CHUMANA PRIMARY SCHOOL",
		"longitude": "28.9774973210431",
		"latitude": "-24.0766781780245",
		"address": "P.O. BOX 59; MAHWELERENG"
	},
	{
		"name": "CLERMONT PRIMARY SCHOOL",
		"longitude": "28.7978931833991",
		"latitude": "-23.7706415075738",
		"address": "P.O. BOX 788; BAKENBERG"
	},
	{
		"name": "COMPREHENSIVE TRINITY ACADEMY",
		"longitude": "29.91788",
		"latitude": "-23.06044",
		"address": "PO Box 1187"
	},
	{
		"name": "CON ROUX PRIMARY SCHOOL",
		"longitude": "28.9535709102567",
		"latitude": "-24.9210138888888",
		"address": "P O BOX 1894; MARBLE HALL"
	},
	{
		"name": "CORNELIUS MASIBE PRIMARY SCHOOL",
		"longitude": "28.8968",
		"latitude": "-23.95514",
		"address": "P.O. BOX 264; MAPELA"
	},
	{
		"name": "CRACOUW PRIMARY SCHOOL",
		"longitude": "28.8041171281084",
		"latitude": "-23.4180853724151",
		"address": "P.O. BOX 610; JUNO"
	},
	{
		"name": "CRAIGHEAD PRIMARY SCHOOL",
		"longitude": "30.1641644253606",
		"latitude": "-23.9750807808738",
		"address": "P.O. BOX 334; TZANEEN"
	},
	{
		"name": "CVO POTGIETERSRUS",
		"longitude": "29.0208249654683",
		"latitude": "-24.1893994425668",
		"address": "POSBUS 1776"
	},
	{
		"name": "CVO SKOOL VIVO",
		"longitude": "29.2796249123806",
		"latitude": "-23.0484208672858",
		"address": "PO BOX 34"
	},
	{
		"name": "CVO SKOOL ZOUTPANSBERG",
		"longitude": "29.8747514476665",
		"latitude": "-22.8893180359285",
		"address": "P O Box 1290"
	},
	{
		"name": "D.G. TSEBE",
		"longitude": "28.9821614198827",
		"latitude": "-24.1472767925174",
		"address": "P/BAG X610; MAHWELERENG"
	},
	{
		"name": "DAGBREEK PRIMARY SCHOOL",
		"longitude": "28.4405626021172",
		"latitude": "-24.6959676524955",
		"address": "P.O. BOX 180; NYLSTROOM"
	},
	{
		"name": "DAMANI PRIMARY",
		"longitude": "30.5124928091954",
		"latitude": "-22.8404622165503",
		"address": "P.O. BOX 1609; MAKONDE984"
	},
	{
		"name": "DAMBALE PRIMARY SCHOOL",
		"longitude": "30.6891196512631",
		"latitude": "-22.5096228536308",
		"address": "P.O. BOX 126; SAGOLE995"
	},
	{
		"name": "DAMBALWASHE PRIMARY SCHOOL",
		"longitude": "30.4298630267627",
		"latitude": "-23.0076652609552",
		"address": "Box 3281"
	},
	{
		"name": "DAMBAVHUSHA",
		"longitude": "30.4640375330296",
		"latitude": "-22.8945184221585",
		"address": "P.O. BOX 361; VHUFULI"
	},
	{
		"name": "DAN PRIMARY SCHOOL",
		"longitude": "30.2673250840902",
		"latitude": "-23.9111847990101",
		"address": "P/BAG X1422; LETABA"
	},
	{
		"name": "DAVID LUVHIMBA SECONDARY",
		"longitude": "29.9849250897591",
		"latitude": "-23.3716642244981",
		"address": "P.O. BOX 105; MUILA"
	},
	{
		"name": "DAVID MUTSHINYALO SECONDARY SCHOOL",
		"longitude": "30.60033",
		"latitude": "-22.75603",
		"address": "P.O. BOX 2665; SIBASA"
	},
	{
		"name": "DAVID NKOANA PRIMARY",
		"longitude": "29.3723402188031",
		"latitude": "-23.8577369060382",
		"address": "P.O. BOX 1593; SESHEGO"
	},
	{
		"name": "DE HOOP PRIMARY",
		"longitude": "30.2795956055268",
		"latitude": "-23.187850762343",
		"address": "P.O. BOX 139; MASIA"
	},
	{
		"name": "DEELKRAAL PRIMARY SCHOOL",
		"longitude": "29.8676158325179",
		"latitude": "-23.4666209377994",
		"address": "P.O. BOX 69; SOEKMEKAAR"
	},
	{
		"name": "DEESIDE COMBINED",
		"longitude": "30.5196786119707",
		"latitude": "-23.7383862880335",
		"address": "P.O. BOX 626; LETSITELE"
	},
	{
		"name": "DENDRON PRIMARY SCHOOL",
		"longitude": "29.3264227323506",
		"latitude": "-23.3580151814848",
		"address": "P/BAG X2351; DENDRON"
	},
	{
		"name": "DENDRON SECONDARY SCHOOL",
		"longitude": "29.328247056881",
		"latitude": "-23.3608431373423",
		"address": "PO BOX 1312"
	},
	{
		"name": "DENGA SECONDARY SCHOOL",
		"longitude": "29.9716112051295",
		"latitude": "-23.278961680702",
		"address": "P.O. BOX 149; MUNZHEDZI948"
	},
	{
		"name": "DENGA TSHIVHASE SECONDARY SCHOOL",
		"longitude": "30.3811027675795",
		"latitude": "-22.9550248017785",
		"address": "P/BAG 2184; SIBASA"
	},
	{
		"name": "DENGENYA SECONDARY SCHOOL",
		"longitude": "30.5130209426817",
		"latitude": "-22.9115231285107",
		"address": "P/BAG X2344; SIBASA"
	},
	{
		"name": "DENNIS MATLHABA II SENIOR SECONDARY SCHOOL",
		"longitude": "28.7675130890255",
		"latitude": "-23.8525893059411",
		"address": "P/BAG 2306; BAKENBERG"
	},
	{
		"name": "DENZHE PRIMARY SCHOOL",
		"longitude": "30.6913904694197",
		"latitude": "-22.8287201220641",
		"address": "P.O. BOX 647; TSHIFUDI"
	},
	{
		"name": "DEO GLORIA PRIMARY SCHOOL",
		"longitude": "27.4474322723332",
		"latitude": "-24.5846840639391",
		"address": "P.O. BOX 5065; PODIPHATSHWA"
	},
	{
		"name": "DEREK KOBE SENIOR SECONDARY SCHOOL",
		"longitude": "29.4656265264604",
		"latitude": "-24.3015139363891",
		"address": "P.O. BOX 1230; LEBOWA"
	},
	{
		"name": "DEWAGENDRIFT COMBINED SCHOOL",
		"longitude": "29.4169214993565",
		"latitude": "-25.3592814738728",
		"address": "P O BOX 439"
	},
	{
		"name": "DIAKGANYA PRIMARY SCHOOL",
		"longitude": "29.0890655824737",
		"latitude": "-23.5644825127084",
		"address": "BOX 573; LONSDALE"
	},
	{
		"name": "DIAMMONA SECODARY SCHOOL",
		"longitude": "28.0669181012085",
		"latitude": "-23.3235822526319",
		"address": "P.O. BOX 931; ELLISRAS"
	},
	{
		"name": "DIBATHUTO SECONDARY SCHOOL",
		"longitude": "29.05878991889",
		"latitude": "-25.2502250674852",
		"address": "PO BOX 1607"
	},
	{
		"name": "DIBENG PRIMARY SCHOOL",
		"longitude": "28.9318345665412",
		"latitude": "-23.7760804512017",
		"address": "P.O.; LIMBURG"
	},
	{
		"name": "DIDIDI PRIMARY SCHOOL",
		"longitude": "30.5110206496807",
		"latitude": "-23.0139899824163",
		"address": "P.O. BOX 180; SIBASA970"
	},
	{
		"name": "DIHLABAKELA SECONDARY SCHOOL",
		"longitude": "30.04926",
		"latitude": "-24.5049",
		"address": "P.O. BOX 66; DRIEKOP1129"
	},
	{
		"name": "DIHLOPANENG .P. SCHOOL",
		"longitude": "29.7061829814671",
		"latitude": "-24.0639277777777",
		"address": "P.O.; MPHOGODIBA"
	},
	{
		"name": "DIKANKATLA PRIMARY",
		"longitude": "30.0371256463423",
		"latitude": "-24.7094093420621",
		"address": "P.O. BOX 26; SEKHUKHUNE1124"
	},
	{
		"name": "DIKETEPE  PRIMARY  SCHOOL",
		"longitude": "30.0642108177498",
		"latitude": "-24.4733683876621",
		"address": "P.O. BOX 127; DRIEKOP1129"
	},
	{
		"name": "DIKGABJE PRIMARY",
		"longitude": "29.8404466031243",
		"latitude": "-24.7726116121949",
		"address": "P.O. BOX 910; JANE FURSE1085"
	}
]